%time,field.header.seq,field.header.stamp,field.header.frame_id,field.name0,field.name1,field.name2,field.name3,field.name4,field.position0,field.position1,field.position2,field.position3,field.position4,field.velocity0,field.velocity1,field.velocity2,field.velocity3,field.velocity4,field.effort0,field.effort1,field.effort2,field.effort3,field.effort4
480241000000,23995,480239000000,,end,joint2,joint4,joint6,motortom2m,-0.100806507242,0.20189827771,0.423559588293,0.170923760374,-0.69535082112,-5.64392731061e-07,-8.22451298979e-07,-1.20695321763e-06,-9.26666019021e-07,-4.35116876553e-07,0.0,0.0,0.0,0.0,0.0
480260000000,23996,480259000000,,end,joint2,joint4,joint6,motortom2m,-0.102167698281,0.204624599288,0.429278696399,0.173230942677,-0.704742390586,-5.64122642899e-07,-8.16664721202e-07,-1.20944681917e-06,-9.29143115832e-07,-4.21582946451e-07,0.0,0.0,0.0,0.0,0.0
480280000000,23997,480279000000,,end,joint2,joint4,joint6,motortom2m,-0.103486164244,0.207265347059,0.434818293086,0.17546570712,-0.713839177382,-5.63745640518e-07,-8.10811942758e-07,-1.21164474677e-06,-9.31385982305e-07,-4.08224412478e-07,0.0,0.0,0.0,0.0,0.0
480299000000,23998,480299000000,,end,joint2,joint4,joint6,motortom2m,-0.104726829499,0.209750268248,0.440031006447,0.177568601451,-0.722399176374,-5.63172912733e-07,-8.04857769228e-07,-1.21333867527e-06,-9.33222290163e-07,-3.95161279576e-07,0.0,0.0,0.0,0.0,0.0
480319000000,23999,480319000000,,end,joint2,joint4,joint6,motortom2m,-0.105894502111,0.212088997204,0.444937043983,0.179547778281,-0.730455565657,5.05051444086e-07,1.36752025222e-06,4.94731281667e-07,3.2701069905e-07,2.24104544475e-06,0.0,0.0,0.0,0.0,0.0
480340000000,24000,480339000000,,end,joint2,joint4,joint6,motortom2m,-0.107042017446,0.214387348943,0.449758383551,0.181492785983,-0.738372874577,5.01343583232e-07,1.36216964609e-06,4.85039302993e-07,3.19672712434e-07,2.23888703491e-06,0.0,0.0,0.0,0.0,0.0
480362000000,24001,480359000000,,end,joint2,joint4,joint6,motortom2m,-0.108179675264,0.216665957127,0.454538306311,0.183421085464,-0.74622217134,4.99409517513e-07,1.36039349599e-06,4.78234065151e-07,3.14467204946e-07,2.24097615697e-06,0.0,0.0,0.0,0.0,0.0
480380000000,24002,480379000000,,end,joint2,joint4,joint6,motortom2m,-0.109264335242,0.21883841625,0.45909555616,0.185259555029,-0.753705808265,4.98096396003e-07,1.35979223355e-06,4.72620658886e-07,3.10145663031e-07,2.24425391429e-06,0.0,0.0,0.0,0.0,0.0
480400000000,24003,480399000000,,end,joint2,joint4,joint6,motortom2m,-0.110238785051,0.220790136068,0.463189752803,0.186911221314,-0.760429047543,4.97030542586e-07,1.35950321721e-06,4.67784988995e-07,3.06411176051e-07,2.2474739545e-06,0.0,0.0,0.0,0.0,0.0
480419000000,24004,480419000000,,end,joint2,joint4,joint6,motortom2m,-0.111071961698,0.222458896491,0.466690377559,0.188323430373,-0.766177564672,-5.49827618943e-07,-7.53621349807e-07,-1.20516985674e-06,-9.30142715142e-07,-3.04056112571e-07,0.0,0.0,0.0,0.0,0.0
480439000000,24005,480439000000,,end,joint2,joint4,joint6,motortom2m,-0.111796753627,0.22391057801,0.469735624902,0.189551933252,-0.771178283565,-5.49593795713e-07,-7.50398150616e-07,-1.20627014891e-06,-9.31292112945e-07,-2.96919935391e-07,0.0,0.0,0.0,0.0,0.0
480462000000,24006,480459000000,,end,joint2,joint4,joint6,motortom2m,-0.112469482496,0.225257982726,0.472562126846,0.190692190639,-0.775819792151,-5.50248970613e-07,-7.4918903481e-07,-1.20868703893e-06,-9.33386581822e-07,-2.92471370817e-07,0.0,0.0,0.0,0.0,0.0
480480000000,24007,480479000000,,end,joint2,joint4,joint6,motortom2m,-0.113106308333,0.22653347747,0.475237780516,0.19177159335,-0.78021358693,-5.50879737158e-07,-7.48074424924e-07,-1.21098988974e-06,-9.35378873473e-07,-2.88312002046e-07,0.0,0.0,0.0,0.0,0.0
480499000000,24008,480499000000,,end,joint2,joint4,joint6,motortom2m,-0.113715017256,0.227752661212,0.477795305709,0.192803341649,-0.784413393073,4.93699870999e-07,1.35916568459e-06,4.5125429806e-07,2.93664475533e-07,2.25947215106e-06,0.0,0.0,0.0,0.0,0.0
480519000000,24009,480519000000,,end,joint2,joint4,joint6,motortom2m,-0.114298443597,0.228921202402,0.480246598867,0.193792233636,-0.788438756764,4.89648558753e-07,1.35202999755e-06,4.42912959332e-07,2.87415304457e-07,2.25288560783e-06,0.0,0.0,0.0,0.0,0.0
480539000000,24010,480539000000,,end,joint2,joint4,joint6,motortom2m,-0.114855377023,0.230036681098,0.482586580812,0.19473622085,-0.792281331976,4.88270659299e-07,1.35023888521e-06,4.38921751556e-07,2.84385849043e-07,2.25265239818e-06,0.0,0.0,0.0,0.0,0.0
480559000000,24011,480559000000,,end,joint2,joint4,joint6,motortom2m,-0.115381480144,0.231090409962,0.48479702779,0.195627951528,-0.795911192786,4.8784212826e-07,1.35030380913e-06,4.3654462481e-07,2.82554533892e-07,2.25454333606e-06,0.0,0.0,0.0,0.0,0.0
480579000000,24012,480579000000,,end,joint2,joint4,joint6,motortom2m,-0.11587020087,0.232069265845,0.486850410878,0.196456320048,-0.799283132881,4.87649902203e-07,1.35077911096e-06,4.34667924941e-07,2.8109816458e-07,2.25679237368e-06,0.0,0.0,0.0,0.0,0.0
480600000000,24013,480599000000,,end,joint2,joint4,joint6,motortom2m,-0.116313686845,0.232957517177,0.488713732073,0.197208013923,-0.802342970148,-5.42246291048e-07,-7.1873864357e-07,-1.20372684706e-06,-9.31455445122e-07,-2.3894319813e-07,0.0,0.0,0.0,0.0,0.0
480622000000,24014,480619000000,,end,joint2,joint4,joint6,motortom2m,-0.116703694741,0.233738661711,0.490352368568,0.197869066844,-0.805033838761,-5.42721073507e-07,-7.18225656297e-07,-1.2052502355e-06,-9.32762363886e-07,-2.36647575926e-07,0.0,0.0,0.0,0.0,0.0
480639000000,24015,480639000000,,end,joint2,joint4,joint6,motortom2m,-0.117032509843,0.234397243552,0.491733900661,0.198426399619,-0.807302506256,-5.43942268142e-07,-7.19432446489e-07,-1.20783140199e-06,-9.34826160804e-07,-2.36691140669e-07,0.0,0.0,0.0,0.0,0.0
480659000000,24016,480659000000,,end,joint2,joint4,joint6,motortom2m,-0.117293855338,0.234920690911,0.49283195603,0.19886937322,-0.809105665615,-5.45114217108e-07,-7.20783742416e-07,-1.21019470645e-06,-9.36699762837e-07,-2.37198079187e-07,0.0,0.0,0.0,0.0,0.0
480679000000,24017,480679000000,,end,joint2,joint4,joint6,motortom2m,-0.117483805722,0.235301145559,0.49363004746,0.199191336985,-0.810416237355,4.8555527864e-07,1.34948887707e-06,4.26217479874e-07,2.7460433881e-07,2.260727244e-06,0.0,0.0,0.0,0.0,0.0
480699000000,24018,480699000000,,end,joint2,joint4,joint6,motortom2m,-0.117601704338,0.235537283999,0.494125404021,0.19939117197,-0.811229681606,4.83648506072e-07,1.34590494065e-06,4.22833935392e-07,2.72075673605e-07,2.25681012633e-06,0.0,0.0,0.0,0.0,0.0
480719000000,24019,480719000000,,end,joint2,joint4,joint6,motortom2m,-0.117651070586,0.235636159368,0.49433281863,0.199474846436,-0.811570285188,4.83668994721e-07,1.34607299275e-06,4.22731038669e-07,2.71984551592e-07,2.25718872443e-06,0.0,0.0,0.0,0.0,0.0
480739000000,24020,480739000000,,end,joint2,joint4,joint6,motortom2m,-0.117653655349,0.235641336378,0.494343678639,0.199479227543,-0.811588118829,4.8427559537e-07,1.34730889366e-06,4.2369352311e-07,2.72693987736e-07,2.25869131006e-06,0.0,0.0,0.0,0.0,0.0
480759000000,24021,480759000000,,end,joint2,joint4,joint6,motortom2m,-0.117653656374,0.235641334321,0.494343677013,0.199479226338,-0.81158812131,-5.4034669074e-07,-7.09751347443e-07,-1.20326926047e-06,-9.31760172665e-07,-2.22328820927e-07,0.0,0.0,0.0,0.0,0.0
480779000000,24022,480779000000,,end,joint2,joint4,joint6,motortom2m,-0.117653656374,0.235641334321,0.494343677012,0.199479226338,-0.81158812131,-5.405952255e-07,-7.10249823846e-07,-1.2036636007e-06,-9.32052205839e-07,-2.22929947504e-07,0.0,0.0,0.0,0.0,0.0
480799000000,24023,480799000000,,end,joint2,joint4,joint6,motortom2m,-0.117653656376,0.235641334318,0.49434367701,0.199479226336,-0.811588121314,-5.42236334996e-07,-7.1354272309e-07,-1.20626845399e-06,-9.33980972288e-07,-2.26901049757e-07,0.0,0.0,0.0,0.0,0.0
480820000000,24024,480819000000,,end,joint2,joint4,joint6,motortom2m,-0.117653656377,0.235641334314,0.494343677007,0.199479226334,-0.811588121318,-5.43934729306e-07,-7.16951258032e-07,-1.20896461362e-06,-9.35977206308e-07,-2.31011778172e-07,0.0,0.0,0.0,0.0,0.0
480839000000,24025,480839000000,,end,joint2,joint4,joint6,motortom2m,-0.117653655347,0.235641336383,0.494343678643,0.199479227545,-0.811588118823,4.86487092783e-07,1.35174719183e-06,4.27204180148e-07,2.75293274018e-07,2.2640440036e-06,0.0,0.0,0.0,0.0,0.0
480860000000,24026,480859000000,,end,joint2,joint4,joint6,motortom2m,-0.11765365535,0.235641336377,0.494343678639,0.199479227542,-0.81158811883,4.83776588167e-07,1.34630366305e-06,4.22899303982e-07,2.72106709885e-07,2.25747803386e-06,0.0,0.0,0.0,0.0,0.0
480881000000,24027,480879000000,,end,joint2,joint4,joint6,motortom2m,-0.11765365535,0.235641336377,0.494343678638,0.199479227542,-0.81158811883,4.83530940705e-07,1.34581233711e-06,4.22510259899e-07,2.71818324556e-07,2.2568859101e-06,0.0,0.0,0.0,0.0,0.0
480900000000,24028,480899000000,,end,joint2,joint4,joint6,motortom2m,-0.117653655349,0.235641336378,0.494343678639,0.199479227543,-0.811588118829,4.84070575565e-07,1.34689699668e-06,4.23367825923e-07,2.72452930265e-07,2.25819443955e-06,0.0,0.0,0.0,0.0,0.0
480920000000,24029,480919000000,,end,joint2,joint4,joint6,motortom2m,-0.117653656374,0.235641334321,0.494343677012,0.199479226338,-0.811588121311,-5.40760968473e-07,-7.10583265903e-07,-1.20392691268e-06,-9.32247020016e-07,-2.23332503697e-07,0.0,0.0,0.0,0.0,0.0
480940000000,24030,480939000000,,end,joint2,joint4,joint6,motortom2m,-0.117653656374,0.235641334322,0.494343677013,0.199479226338,-0.811588121309,-5.40263621724e-07,-7.09584747062e-07,-1.20313742194e-06,-9.31662537713e-07,-2.22127963365e-07,0.0,0.0,0.0,0.0,0.0
480960000000,24031,480959000000,,end,joint2,joint4,joint6,motortom2m,-0.117653656375,0.235641334319,0.49434367701,0.199479226337,-0.811588121313,-5.4170280299e-07,-7.12472068044e-07,-1.20542153922e-06,-9.33353897377e-07,-2.25609853628e-07,0.0,0.0,0.0,0.0,0.0
480979000000,24032,480979000000,,end,joint2,joint4,joint6,motortom2m,-0.117653656377,0.235641334315,0.494343677008,0.199479226335,-0.811588121317,-5.43448652079e-07,-7.15975707019e-07,-1.20819295877e-06,-9.35405880829e-07,-2.29835244781e-07,0.0,0.0,0.0,0.0,0.0
481000000000,24033,480999000000,,end,joint2,joint4,joint6,motortom2m,-0.117653656378,0.235641334312,0.494343677005,0.199479226333,-0.811588121321,-5.44940014802e-07,-7.18968913244e-07,-1.21056055204e-06,-9.37158810978e-07,-2.33445124413e-07,0.0,0.0,0.0,0.0,0.0
481019000000,24034,481019000000,,end,joint2,joint4,joint6,motortom2m,-0.117653655349,0.235641336378,0.494343678639,0.199479227543,-0.811588118829,4.84220741778e-07,1.34719478755e-06,4.23604245051e-07,2.72628699165e-07,2.25855267767e-06,0.0,0.0,0.0,0.0,0.0
481039000000,24035,481039000000,,end,joint2,joint4,joint6,motortom2m,-0.11765365535,0.235641336377,0.494343678638,0.199479227542,-0.811588118831,4.83471193669e-07,1.34569189532e-06,4.22415119891e-07,2.71747991117e-07,2.25674052103e-06,0.0,0.0,0.0,0.0,0.0
481059000000,24036,481059000000,,end,joint2,joint4,joint6,motortom2m,-0.11765365535,0.235641336378,0.494343678639,0.199479227542,-0.81158811883,4.83878485986e-07,1.3465110223e-06,4.23062632512e-07,2.72227059773e-07,2.25772883256e-06,0.0,0.0,0.0,0.0,0.0
481079000000,24037,481079000000,,end,joint2,joint4,joint6,motortom2m,-0.117653655349,0.235641336379,0.49434367864,0.199479227543,-0.811588118828,4.84535489442e-07,1.34783099972e-06,4.24106391673e-07,2.72999569452e-07,2.25932109934e-06,0.0,0.0,0.0,0.0,0.0
481099000000,24038,481099000000,,end,joint2,joint4,joint6,motortom2m,-0.117653656374,0.235641334322,0.494343677013,0.199479226339,-0.811588121309,-5.40106768516e-07,-7.09270379063e-07,-1.20288865821e-06,-9.3147826749e-07,-2.21748933585e-07,0.0,0.0,0.0,0.0,0.0
481120000000,24039,481119000000,,end,joint2,joint4,joint6,motortom2m,-0.117653656375,0.23564133432,0.494343677011,0.199479226337,-0.811588121312,-5.41191674879e-07,-7.1144645377e-07,-1.20461023295e-06,-9.32753171182e-07,-2.24372996754e-07,0.0,0.0,0.0,0.0,0.0
481139000000,24040,481139000000,,end,joint2,joint4,joint6,motortom2m,-0.117653656376,0.235641334316,0.494343677008,0.199479226335,-0.811588121316,-5.429389842e-07,-7.14952836228e-07,-1.20738386787e-06,-9.34806832744e-07,-2.28601649475e-07,0.0,0.0,0.0,0.0,0.0
481159000000,24041,481159000000,,end,joint2,joint4,joint6,motortom2m,-0.117653656378,0.235641334313,0.494343677006,0.199479226333,-0.81158812132,-5.44530210543e-07,-7.1814640838e-07,-1.20990996369e-06,-9.36677128546e-07,-2.32453159378e-07,0.0,0.0,0.0,0.0,0.0
481179000000,24042,481179000000,,end,joint2,joint4,joint6,motortom2m,-0.117653655349,0.23564133638,0.494343678641,0.199479227544,-0.811588118827,4.84951035286e-07,1.34866072379e-06,4.24763723812e-07,2.73487116012e-07,2.26032069679e-06,0.0,0.0,0.0,0.0,0.0
481201000000,24043,481199000000,,end,joint2,joint4,joint6,motortom2m,-0.11765365535,0.235641336377,0.494343678638,0.199479227542,-0.811588118831,4.83506759928e-07,1.34576275041e-06,4.22471293413e-07,2.71789687832e-07,2.25682584087e-06,0.0,0.0,0.0,0.0,0.0
481219000000,24044,481219000000,,end,joint2,joint4,joint6,motortom2m,-0.11765365535,0.235641336377,0.494343678639,0.199479227542,-0.81158811883,4.83705304894e-07,1.34616296675e-06,4.22787440015e-07,2.72023407779e-07,2.25730894875e-06,0.0,0.0,0.0,0.0,0.0
481245000000,24045,481239000000,,end,joint2,joint4,joint6,motortom2m,-0.117653655349,0.235641336379,0.49434367864,0.199479227543,-0.811588118829,4.84337001041e-07,1.34743226107e-06,4.23791082844e-07,2.72766193808e-07,2.25884011813e-06,0.0,0.0,0.0,0.0,0.0
481259000000,24046,481259000000,,end,joint2,joint4,joint6,motortom2m,-0.117653656374,0.235641334322,0.494343677013,0.199479226338,-0.811588121309,-5.4022269977e-07,-7.0950293809e-07,-1.20307265351e-06,-9.31614518299e-07,-2.22029357697e-07,0.0,0.0,0.0,0.0,0.0
481279000000,24047,481279000000,,end,joint2,joint4,joint6,motortom2m,-0.117653656374,0.235641334321,0.494343677012,0.199479226338,-0.811588121311,-5.40729774554e-07,-7.10519736461e-07,-1.20387713017e-06,-9.32210326348e-07,-2.23255435867e-07,0.0,0.0,0.0,0.0,0.0
481299000000,24048,481299000000,,end,joint2,joint4,joint6,motortom2m,-0.117655933713,0.235642386727,0.494347355058,0.199480932639,-0.811592280274,-5.42411598376e-07,-7.13893788731e-07,-1.20654963807e-06,-9.34189174751e-07,-2.27321760115e-07,0.0,0.0,0.0,0.0,0.0
481319000000,24049,481319000000,,end,joint2,joint4,joint6,motortom2m,-0.117741972228,0.235682147098,0.494486312905,0.199545397301,-0.811749407086,-5.44065738962e-07,-7.17130899467e-07,-1.20925779236e-06,-9.36206256695e-07,-2.31108428308e-07,0.0,0.0,0.0,0.0,0.0
481339000000,24050,481339000000,,end,joint2,joint4,joint6,motortom2m,-0.118054553604,0.235826600675,0.49499115565,0.199779601995,-0.812320254481,4.8580989079e-07,1.35053265182e-06,4.25589982194e-07,2.74078004713e-07,2.26303920215e-06,0.0,0.0,0.0,0.0,0.0
481359000000,24051,481359000000,,end,joint2,joint4,joint6,motortom2m,-0.118676685396,0.236114102053,0.495995939331,0.200245736455,-0.813456415248,4.83078217103e-07,1.34533013838e-06,4.20446910365e-07,2.70227789494e-07,2.2574926611e-06,0.0,0.0,0.0,0.0,0.0
481379000000,24052,481379000000,,end,joint2,joint4,joint6,motortom2m,-0.119635932692,0.23655739224,0.497545186681,0.200964455907,-0.815208229193,4.82383863163e-07,1.34439590578e-06,4.18117302808e-07,2.68432049651e-07,2.25749280306e-06,0.0,0.0,0.0,0.0,0.0
481399000000,24053,481399000000,,end,joint2,joint4,joint6,motortom2m,-0.120917226245,0.237149507377,0.499614559866,0.20192446966,-0.817548176294,4.82173671181e-07,1.34460384558e-06,4.16155665354e-07,2.66881558216e-07,2.25924796591e-06,0.0,0.0,0.0,0.0,0.0
481420000000,24054,481419000000,,end,joint2,joint4,joint6,motortom2m,-0.122475666457,0.237869695796,0.502131539807,0.203092134558,-0.820394259804,-5.38774655557e-07,-7.00930089028e-07,-1.20481337859e-06,-9.33783189445e-07,-2.04877350702e-07,0.0,0.0,0.0,0.0,0.0
481440000000,24055,481439000000,,end,joint2,joint4,joint6,motortom2m,-0.124249323287,0.238689343234,0.504996111955,0.204421053223,-0.823633379533,-5.37612162328e-07,-6.96464458207e-07,-1.20441584618e-06,-9.33822483626e-07,-1.96994661325e-07,0.0,0.0,0.0,0.0,0.0
481459000000,24056,481459000000,,end,joint2,joint4,joint6,motortom2m,-0.126172046388,0.239577877559,0.508101435869,0.205861660298,-0.82714472981,-5.3831800205e-07,-6.95549930038e-07,-1.20708708125e-06,-9.3616547431e-07,-1.93191944174e-07,0.0,0.0,0.0,0.0,0.0
481479000000,24057,481479000000,,end,joint2,joint4,joint6,motortom2m,-0.128186265005,0.240508694,0.511354531,0.20737082069,-0.830823172736,-5.39191308952e-07,-6.94854902155e-07,-1.21008591353e-06,-9.3876944995e-07,-1.8953826482e-07,0.0,0.0,0.0,0.0,0.0
481499000000,24058,481499000000,,end,joint2,joint4,joint6,motortom2m,-0.130255791986,0.241465072146,0.514696955976,0.208921423001,-0.834602621367,4.78496373618e-07,1.34191895199e-06,3.98607889743e-07,2.53150824614e-07,2.26682840858e-06,0.0,0.0,0.0,0.0,0.0
481519000000,24059,481519000000,,end,joint2,joint4,joint6,motortom2m,-0.132378631854,0.242446084821,0.518125481448,0.210511968192,-0.838479432677,4.74454473847e-07,1.33488819709e-06,3.89564730708e-07,2.46285575356e-07,2.2607715903e-06,0.0,0.0,0.0,0.0,0.0
481540000000,24060,481539000000,,end,joint2,joint4,joint6,motortom2m,-0.134599778683,0.243472527347,0.521712779077,0.212176170206,-0.842535775949,4.72878950447e-07,1.33282088506e-06,3.84303777389e-07,2.42218967023e-07,2.26078430177e-06,0.0,0.0,0.0,0.0,0.0
481560000000,24061,481559000000,,end,joint2,joint4,joint6,motortom2m,-0.137055693471,0.244607461485,0.525679242336,0.21401627293,-0.847020861455,4.71966175056e-07,1.33214696821e-06,3.79786692499e-07,2.38694904539e-07,2.2627069284e-06,0.0,0.0,0.0,0.0,0.0
481579000000,24062,481579000000,,end,joint2,joint4,joint6,motortom2m,-0.139981703358,0.245959634814,0.530404936777,0.216208594126,-0.852364453181,-5.30208464495e-07,-6.62864586904e-07,-1.20529979807e-06,-9.37406388922e-07,-1.34884005431e-07,0.0,0.0,0.0,0.0,0.0
481600000000,24063,481599000000,,end,joint2,joint4,joint6,motortom2m,-0.143357354266,0.247519599961,0.535856834126,0.218737812353,-0.858529195957,-5.29012104719e-07,-6.56508529749e-07,-1.20607565562e-06,-9.38597114659e-07,-1.22725011891e-07,0.0,0.0,0.0,0.0,0.0
481619000000,24064,481619000000,,end,joint2,joint4,joint6,motortom2m,-0.146978490276,0.24919300936,0.541705205993,0.221450961147,-0.865142253016,-5.2909176322e-07,-6.52383335874e-07,-1.20901792815e-06,-9.4144442211e-07,-1.12964268814e-07,0.0,0.0,0.0,0.0,0.0
481640000000,24065,481639000000,,end,joint2,joint4,joint6,motortom2m,-0.150668410011,0.250898205285,0.54766466808,0.224215646386,-0.871880925542,-5.29165634814e-07,-6.4816840332e-07,-1.21197465712e-06,-9.44314687948e-07,-1.0305639967e-07,0.0,0.0,0.0,0.0,0.0
481660000000,24066,481659000000,,end,joint2,joint4,joint6,motortom2m,-0.15447517155,0.252657398886,0.55381284049,0.227067877653,-0.878832978492,4.60756104054e-07,1.31775066765e-06,3.40546857135e-07,2.08388376194e-07,2.26410141101e-06,0.0,0.0,0.0,0.0,0.0
481679000000,24067,481679000000,,end,joint2,joint4,joint6,motortom2m,-0.158554509952,0.254542554032,0.560401239221,0.230124336181,-0.886282822286,4.57344559303e-07,1.31274236322e-06,3.30177695726e-07,2.00429390874e-07,2.2622802584e-06,0.0,0.0,0.0,0.0,0.0
481699000000,24068,481699000000,,end,joint2,joint4,joint6,motortom2m,-0.162890305952,0.256546224076,0.567403833779,0.233372946462,-0.894201018754,4.55142354829e-07,1.31021317639e-06,3.21420316128e-07,1.93656629196e-07,2.26362721942e-06,0.0,0.0,0.0,0.0,0.0
481719000000,24069,481719000000,,end,joint2,joint4,joint6,motortom2m,-0.167403776938,0.258631999417,0.574693381994,0.236754678491,-0.902443692599,-5.16307109559e-07,-6.03371474494e-07,-1.20450223356e-06,-9.41734131247e-07,-2.80515332229e-08,0.0,0.0,0.0,0.0,0.0
481740000000,24070,481739000000,,end,joint2,joint4,joint6,motortom2m,-0.172097403059,0.260801030921,0.582273895652,0.240271394248,-0.911015372111,-5.14398246456e-07,-5.94274902411e-07,-1.20500947675e-06,-9.42925860631e-07,-1.14073105114e-08,0.0,0.0,0.0,0.0,0.0
481759000000,24071,481759000000,,end,joint2,joint4,joint6,motortom2m,-0.177075694671,0.263101612825,0.59031416272,0.244001396614,-0.920106918629,-5.13821279916e-07,-5.87524207764e-07,-1.20777651259e-06,-9.45840074503e-07,2.66326538494e-09,0.0,0.0,0.0,0.0,0.0
481780000000,24072,481779000000,,end,joint2,joint4,joint6,motortom2m,-0.182252547785,0.265493956841,0.59867512266,0.247880173708,-0.929561085255,4.44400829615e-07,1.29666375054e-06,2.81178786942e-07,1.62655477813e-07,2.26595198779e-06,0.0,0.0,0.0,0.0,0.0
481800000000,24073,481799000000,,end,joint2,joint4,joint6,motortom2m,-0.187497537918,0.267917786185,0.607146125289,0.25181000086,-0.939139686823,4.38379547535e-07,1.28679053424e-06,2.65531584181e-07,1.50740943964e-07,2.25887944156e-06,0.0,0.0,0.0,0.0,0.0
481820000000,24074,481819000000,,end,joint2,joint4,joint6,motortom2m,-0.192904362774,0.270416403045,0.615878501604,0.255861083247,-0.94900745372,4.3503549795e-07,1.28215915441e-06,2.53898668548e-07,1.41822167216e-07,2.25810744908e-06,0.0,0.0,0.0,0.0,0.0
481840000000,24075,481839000000,,end,joint2,joint4,joint6,motortom2m,-0.198455140281,0.27298154146,0.624843367934,0.260020020885,-0.959007455889,-4.99392476397e-07,-5.35661890217e-07,-1.20064046025e-06,-9.44088689835e-07,8.92603202773e-08,0.0,0.0,0.0,0.0,0.0
481859000000,24076,481859000000,,end,joint2,joint4,joint6,motortom2m,-0.20396183991,0.275526312747,0.633737048573,0.264145934808,-0.969007455869,-4.96222159183e-07,-5.23571327241e-07,-1.19957249812e-06,-9.44176432191e-07,1.09700625976e-07,0.0,0.0,0.0,0.0,0.0
481882000000,24077,481879000000,,end,joint2,joint4,joint6,motortom2m,-0.209437576755,0.278056775421,0.642580722281,0.268248649753,-0.979007455853,-4.95213811964e-07,-5.15753227965e-07,-1.20176682994e-06,-9.46690108054e-07,1.24846448609e-07,0.0,0.0,0.0,0.0,0.0
481899000000,24078,481899000000,,end,joint2,joint4,joint6,motortom2m,-0.214913312723,0.280587239884,0.651424397462,0.272351365782,-0.989007453724,4.21838581824e-07,1.26354380108e-06,2.07647436831e-07,1.06449983968e-07,2.25400958135e-06,0.0,0.0,0.0,0.0,0.0
481919000000,24079,481919000000,,end,joint2,joint4,joint6,motortom2m,-0.220389049577,0.283117702542,0.660268071162,0.27645408072,-0.999007453731,4.16285545863e-07,1.25439552281e-06,1.9277495814e-07,9.51573306686e-08,2.24724760039e-06,0.0,0.0,0.0,0.0,0.0
481940000000,24080,481939000000,,end,joint2,joint4,joint6,motortom2m,-0.225864786379,0.285648165182,0.669111744785,0.280556795624,-1.00900745373,4.13284221724e-07,1.25012107684e-06,1.81882898746e-07,8.68530761118e-08,2.24616688168e-06,0.0,0.0,0.0,0.0,0.0
481963000000,24081,481959000000,,end,joint2,joint4,joint6,motortom2m,-0.231340524005,0.288178626085,0.677955416941,0.284659509458,-1.01900745577,-4.78881121353e-07,-4.61488173813e-07,-1.19121326516e-06,-9.42149657872e-07,2.11409396528e-07,0.0,0.0,0.0,0.0,0.0
481979000000,24082,481979000000,,end,joint2,joint4,joint6,motortom2m,-0.236816260776,0.290709088726,0.686799090533,0.28876222435,-1.02900745575,-4.77183365931e-07,-4.5271763408e-07,-1.19214103546e-06,-9.43649439629e-07,2.26964123189e-07,0.0,0.0,0.0,0.0,0.0
482001000000,24083,481999000000,,end,joint2,joint4,joint6,motortom2m,-0.242291996728,0.293239553076,0.695642765564,0.292864940293,-1.03900745374,4.043477698e-07,1.23704720217e-06,1.49604457874e-07,6.23117156007e-08,2.24180388277e-06,0.0,0.0,0.0,0.0,0.0
482019000000,24084,482019000000,,end,joint2,joint4,joint6,motortom2m,-0.247767733614,0.295770015747,0.704486439313,0.296967655254,-1.04900745375,3.97934419435e-07,1.2260159178e-06,1.33715968616e-07,5.03047216902e-08,2.23214124619e-06,0.0,0.0,0.0,0.0,0.0
482040000000,24085,482039000000,,end,joint2,joint4,joint6,motortom2m,-0.253243470481,0.298300478416,0.713330113042,0.301070370207,-1.05900745375,3.94840318553e-07,1.22127010984e-06,1.22949133106e-07,4.21515600304e-08,2.22981817593e-06,0.0,0.0,0.0,0.0,0.0
482059000000,24086,482059000000,,end,joint2,joint4,joint6,motortom2m,-0.258719208153,0.300830939447,0.722173785399,0.305173084151,-1.06900745567,-4.61067734928e-07,-4.00689952754e-07,-1.18123993755e-06,-9.38532973752e-07,3.07828960601e-07,0.0,0.0,0.0,0.0,0.0
482079000000,24087,482079000000,,end,joint2,joint4,joint6,motortom2m,-0.264194944897,0.303361402075,0.731017458946,0.309275799022,-1.07900745566,-4.59406213995e-07,-3.92400735085e-07,-1.1820119741e-06,-9.39844139495e-07,3.22062278771e-07,0.0,0.0,0.0,0.0,0.0
482099000000,24088,482099000000,,end,joint2,joint4,joint6,motortom2m,-0.269670680804,0.305891866295,0.739861133776,0.313378514856,-1.08900745376,3.84817895242e-07,1.20526478798e-06,8.98640201361e-08,1.7173114054e-08,2.21991934451e-06,0.0,0.0,0.0,0.0,0.0
482119000000,24089,482119000000,,end,joint2,joint4,joint6,motortom2m,-0.27514641763,0.30842232894,0.74870480743,0.317481229773,-1.09900745377,3.79559042004e-07,1.19620619158e-06,7.60649994662e-08,6.78133536226e-09,2.21193333333e-06,0.0,0.0,0.0,0.0,0.0
482142000000,24090,482139000000,,end,joint2,joint4,joint6,motortom2m,-0.280622155325,0.310952790067,0.757548479929,0.321583943796,-1.1090074556,-4.46608671067e-07,-3.53338745446e-07,-1.17228222087e-06,-9.34612542504e-07,3.80663305184e-07,0.0,0.0,0.0,0.0,0.0
482159000000,24091,482159000000,,end,joint2,joint4,joint6,motortom2m,-0.286097892198,0.313483252759,0.766392153692,0.325686658768,-1.11900745558,-4.42916041574e-07,-3.41597674838e-07,-1.16983157032e-06,-9.33431270295e-07,3.98367203608e-07,0.0,0.0,0.0,0.0,0.0
482180000000,24092,482179000000,,end,joint2,joint4,joint6,motortom2m,-0.291573629029,0.316013715425,0.775235827377,0.329789373703,-1.12900745557,-4.41928865089e-07,-3.3500424774e-07,-1.17139284258e-06,-9.35263358659e-07,4.09830770651e-07,0.0,0.0,0.0,0.0,0.0
482199000000,24093,482199000000,,end,joint2,joint4,joint6,motortom2m,-0.297049365083,0.318544179605,0.784079502315,0.33389208957,-1.13900745379,3.65063926579e-07,1.17176404113e-06,3.13951810714e-08,-2.67516640059e-08,2.192587317e-06,0.0,0.0,0.0,0.0,0.0
482219000000,24094,482219000000,,end,joint2,joint4,joint6,motortom2m,-0.302525101967,0.321074642283,0.792923176072,0.337994804537,-1.14900745379,3.62016780702e-07,1.16659183807e-06,2.12570196028e-08,-3.43307416643e-08,2.18851304125e-06,0.0,0.0,0.0,0.0,0.0
482239000000,24095,482239000000,,end,joint2,joint4,joint6,motortom2m,-0.308000839591,0.323605103484,0.801766848586,0.342097518583,-1.15900745551,-4.26833231236e-07,-2.93212564803e-07,-1.15769106244e-06,-9.26763383778e-07,4.69275773004e-07,0.0,0.0,0.0,0.0,0.0
482262000000,24096,482259000000,,end,joint2,joint4,joint6,motortom2m,-0.313476576367,0.326135566125,0.810610522184,0.346200233478,-1.1690074555,-4.25490920177e-07,-2.86322247777e-07,-1.15853696302e-06,-9.27992161273e-07,4.80470999383e-07,0.0,0.0,0.0,0.0,0.0
482279000000,24097,482279000000,,end,joint2,joint4,joint6,motortom2m,-0.318952312324,0.328666030172,0.819454196858,0.35030294921,-1.17900745381,3.50782159878e-07,1.14686180702e-06,-1.18601168544e-08,-5.90484071859e-08,2.17048594819e-06,0.0,0.0,0.0,0.0,0.0
482301000000,24098,482299000000,,end,joint2,joint4,joint6,motortom2m,-0.324428049123,0.331196492809,0.828297870477,0.354405664112,-1.18900745381,3.4749209238e-07,1.14102073729e-06,-2.20788413941e-08,-6.66460906842e-08,2.16506724569e-06,0.0,0.0,0.0,0.0,0.0
482320000000,24099,482319000000,,end,joint2,joint4,joint6,motortom2m,-0.329903786727,0.333726954088,0.837141543064,0.358508378206,-1.19900745544,-4.10727822166e-07,-2.46489673949e-07,-1.14491599626e-06,-9.1932246114e-07,5.35666306869e-07,0.0,0.0,0.0,0.0,0.0
482339000000,24100,482339000000,,end,joint2,joint4,joint6,motortom2m,-0.33537952361,0.336257416778,0.845985216836,0.362611093181,-1.20900745543,-4.09406441135e-07,-2.40015105978e-07,-1.14560182647e-06,-9.2036543352e-07,5.45748774012e-07,0.0,0.0,0.0,0.0,0.0
482361000000,24101,482359000000,,end,joint2,joint4,joint6,motortom2m,-0.340855259713,0.338787880807,0.854828891642,0.366713808961,-1.21900745383,3.3636618e-07,1.12087688507e-06,-5.41411836363e-08,-9.04454035022e-08,2.14489878306e-06,0.0,0.0,0.0,0.0,0.0
482381000000,24102,482379000000,,end,joint2,joint4,joint6,motortom2m,-0.346330997003,0.341318342562,0.863672564553,0.370816523323,-1.22900745488,-1.54116418473e-07,2.31399388531e-07,-7.76862425175e-07,-6.40658472992e-07,1.10307511439e-06,0.0,0.0,0.0,0.0,0.0
482399000000,24103,482399000000,,end,joint2,joint4,joint6,motortom2m,-0.351806733977,0.343848804743,0.872516237728,0.374919237916,-1.23900745538,-3.94636588154e-07,-2.01545237353e-07,-1.13153471466e-06,-9.11121237849e-07,5.97394866799e-07,0.0,0.0,0.0,0.0,0.0
482419000000,24104,482419000000,,end,joint2,joint4,joint6,motortom2m,-0.357282470028,0.346379268682,0.88135991237,0.379021953609,-1.24900745385,3.2780950891e-07,1.10492626463e-06,-8.17489875531e-08,-1.1076484598e-07,2.12840399093e-06,0.0,0.0,0.0,0.0,0.0
482440000000,24105,482439000000,,end,joint2,joint4,joint6,motortom2m,-0.362786950192,0.348923014277,0.8902500084,0.383146204574,-1.25900745386,3.22280077155e-07,1.09467952459e-06,-9.47152458711e-08,-1.20388864475e-07,2.11688949604e-06,0.0,0.0,0.0,0.0,0.0
482460000000,24106,482459000000,,end,joint2,joint4,joint6,motortom2m,-0.36838793957,0.351511357403,0.899295970993,0.387342764108,-1.26900745533,-3.81346047089e-07,-1.66765841984e-07,-1.1193927849e-06,-9.03162455295e-07,6.43402230764e-07,0.0,0.0,0.0,0.0,0.0
482479000000,24107,482479000000,,end,joint2,joint4,joint6,motortom2m,-0.373817441165,0.354020453716,0.90806497175,0.391410837135,-1.27900745532,-3.78772380318e-07,-1.58796623853e-07,-1.11791430761e-06,-9.02425310417e-07,6.54077732129e-07,0.0,0.0,0.0,0.0,0.0
482499000000,24108,482499000000,,end,joint2,joint4,joint6,motortom2m,-0.378946463157,0.356390693109,0.91634868037,0.395253776047,-1.28877103579,3.12462809704e-07,1.07594947877e-06,-1.22918279444e-07,-1.41083044833e-07,2.09539204039e-06,0.0,0.0,0.0,0.0,0.0
482519000000,24109,482519000000,,end,joint2,joint4,joint6,motortom2m,-0.383904187334,0.35868177032,0.924355729672,0.398968368185,-1.29782502128,3.09523002437e-07,1.07023819976e-06,-1.31326648572e-07,-1.47227567237e-07,2.08863933647e-06,0.0,0.0,0.0,0.0,0.0
482539000000,24110,482539000000,,end,joint2,joint4,joint6,motortom2m,-0.388667962748,0.360883217889,0.932049536967,0.402537642292,-1.30652481029,-3.65654246052e-07,-1.26469821713e-07,-1.10473119634e-06,-8.93379309502e-07,6.94750831609e-07,0.0,0.0,0.0,0.0,0.0
482559000000,24111,482559000000,,end,joint2,joint4,joint6,motortom2m,-0.393193280573,0.362974471785,0.939358223741,0.405928253709,-1.31478911861,3.05017356393e-07,1.06121207785e-06,-1.45452524756e-07,-1.57474059462e-07,2.07764339226e-06,0.0,0.0,0.0,0.0,0.0
482579000000,24112,482579000000,,end,joint2,joint4,joint6,motortom2m,-0.397526710201,0.364977048267,0.946356996446,0.409175090975,-1.32270299353,3.00568377643e-07,1.05279982725e-06,-1.55321123478e-07,-1.6476055784e-07,2.06748899862e-06,0.0,0.0,0.0,0.0,0.0
482599000000,24113,482599000000,,end,joint2,joint4,joint6,motortom2m,-0.401714099547,0.366912134766,0.953119902551,0.412312505848,-1.33035016424,-3.54855426788e-07,-1.00212489751e-07,-1.09402595187e-06,-8.85950300449e-07,7.27127239121e-07,0.0,0.0,0.0,0.0,0.0
482619000000,24114,482619000000,,end,joint2,joint4,joint6,motortom2m,-0.405695334312,0.368751953997,0.959549857498,0.415295459894,-1.33762084742,-3.54227749664e-07,-9.70063025803e-08,-1.09450934394e-06,-8.86546827973e-07,7.31247636238e-07,0.0,0.0,0.0,0.0,0.0
482640000000,24115,482639000000,,end,joint2,joint4,joint6,motortom2m,-0.409404552951,0.370466069815,0.965540490549,0.418074606101,-1.34439476422,2.93199568929e-07,1.03815176166e-06,-1.75159497749e-07,-1.79179528578e-07,2.04902967164e-06,0.0,0.0,0.0,0.0,0.0
482659000000,24116,482659000000,,end,joint2,joint4,joint6,motortom2m,-0.412889360125,0.372076477138,0.971168680475,0.420685608861,-1.35075885248,-3.45927275599e-07,-7.88100323697e-08,-1.0851205442e-06,-8.79702981829e-07,7.52880138131e-07,0.0,0.0,0.0,0.0,0.0
482680000000,24117,482679000000,,end,joint2,joint4,joint6,motortom2m,-0.416279465198,0.373643121881,0.976643922249,0.423225656923,-1.35694999201,-3.44985952861e-07,-7.55115828814e-08,-1.08489291931e-06,-8.79694364285e-07,7.56852024009e-07,0.0,0.0,0.0,0.0,0.0
482699000000,24118,482699000000,,end,joint2,joint4,joint6,motortom2m,-0.419556778118,0.375157644192,0.981936999219,0.425681196232,-1.36293514609,2.87183088312e-07,1.02592632864e-06,-1.91386521712e-07,-1.90907797269e-07,2.03309018315e-06,0.0,0.0,0.0,0.0,0.0
482719000000,24119,482719000000,,end,joint2,joint4,joint6,motortom2m,-0.422592811097,0.376560662779,0.986840389467,0.427955953387,-1.36847966574,-3.38396419547e-07,-6.10242926455e-08,-1.07755803378e-06,-8.74340070811e-07,7.73776528416e-07,0.0,0.0,0.0,0.0,0.0
482740000000,24120,482739000000,,end,joint2,joint4,joint6,motortom2m,-0.425264756368,0.377795429526,0.991155756116,0.429957917711,-1.37335927438,-3.37141372355e-07,-5.75843950861e-08,-1.07659783235e-06,-8.7372462405e-07,7.77768561946e-07,0.0,0.0,0.0,0.0,0.0
482759000000,24121,482759000000,,end,joint2,joint4,joint6,motortom2m,-0.427571795493,0.378861566192,0.994881777305,0.431686475967,-1.37757247734,2.8248665351e-07,1.01633172192e-06,-2.03875162427e-07,-1.99917021236e-07,2.02028740419e-06,0.0,0.0,0.0,0.0,0.0
482779000000,24122,482779000000,,end,joint2,joint4,joint6,motortom2m,-0.429675836913,0.379833890743,0.998279940797,0.433262935597,-1.38141495833,-1.25096376214e-07,3.11417803424e-07,-7.79174179464e-07,-6.44233058867e-07,1.20458635234e-06,0.0,0.0,0.0,0.0,0.0
482801000000,24123,482799000000,,end,joint2,joint4,joint6,motortom2m,-0.431674922584,0.380757713294,1.00150859449,0.434760757134,-1.38506576506,-3.31647679948e-07,-4.51918590228e-08,-1.07076070204e-06,-8.69490673087e-07,7.91962976372e-07,0.0,0.0,0.0,0.0,0.0
482820000000,24124,482819000000,,end,joint2,joint4,joint6,motortom2m,-0.433606172551,0.38165018921,1.00462769154,0.436207754035,-1.38859268751,2.79070029724e-07,1.00919343739e-06,-2.12996423933e-07,-2.06459993291e-07,2.01053876737e-06,0.0,0.0,0.0,0.0,0.0
482839000000,24125,482839000000,,end,joint2,joint4,joint6,motortom2m,-0.435477239204,0.382514850831,1.00764958554,0.437609656517,-1.39200970106,-1.23108810769e-07,3.16086588603e-07,-7.78891187102e-07,-6.43997340944e-07,1.20930611028e-06,0.0,0.0,0.0,0.0,0.0
482861000000,24126,482859000000,,end,joint2,joint4,joint6,motortom2m,-0.437272785227,0.383344613084,1.01054950937,0.438954975268,-1.3952887959,-3.27039793555e-07,-3.48637249746e-08,-1.06589122959e-06,-8.65940041038e-07,8.03598674092e-07,0.0,0.0,0.0,0.0,0.0
482879000000,24127,482879000000,,end,joint2,joint4,joint6,motortom2m,-0.438960970688,0.384124763337,1.0132760413,0.440219855224,-1.39837182466,2.75926102956e-07,1.00262199847e-06,-2.21152255731e-07,-2.12307147582e-07,2.00148411814e-06,0.0,0.0,0.0,0.0,0.0
482900000000,24128,482899000000,,end,joint2,joint4,joint6,motortom2m,-0.440499938293,0.384835954441,1.0157615736,0.441372931346,-1.40118234622,-1.2124446007e-07,3.20310946743e-07,-7.78382878667e-07,-6.43580133489e-07,1.21347924476e-06,0.0,0.0,0.0,0.0,0.0
482919000000,24129,482919000000,,end,joint2,joint4,joint6,motortom2m,-0.441844291412,0.385457210184,1.01793279134,0.442380192242,-1.40363745533,-3.23324405441e-07,-2.65687059929e-08,-1.06193594745e-06,-8.63049413284e-07,8.1283509316e-07,0.0,0.0,0.0,0.0,0.0
482939000000,24130,482939000000,,end,joint2,joint4,joint6,motortom2m,-0.44295158111,0.385968915264,1.01972113854,0.443209834007,-1.40565963003,2.73511818281e-07,9.97622561472e-07,-2.27256772752e-07,-2.16691541758e-07,1.99456011129e-06,0.0,0.0,0.0,0.0,0.0
482960000000,24131,482959000000,,end,joint2,joint4,joint6,motortom2m,-0.443788791399,0.386355808343,1.02107328681,0.443837116017,-1.40718857554,-1.19961906129e-07,3.23193450947e-07,-7.77919791051e-07,-6.43210917007e-07,1.21630363937e-06,0.0,0.0,0.0,0.0,0.0
482983000000,24132,482979000000,,end,joint2,joint4,joint6,motortom2m,-0.444338817307,0.386609987401,1.02196161408,0.444249224481,-1.40819305392,-3.21247940641e-07,-2.19339418411e-08,-1.05967809778e-06,-8.61402321835e-07,8.17981339193e-07,0.0,0.0,0.0,0.0,0.0
482999000000,24133,482999000000,,end,joint2,joint4,joint6,motortom2m,-0.444606951881,0.386733899783,1.02239467077,0.444450126333,-1.40868273144,2.72345861322e-07,9.95323544223e-07,-2.29985175944e-07,-2.18675243414e-07,1.99143677942e-06,0.0,0.0,0.0,0.0,0.0
483019000000,24134,483019000000,,end,joint2,joint4,joint6,motortom2m,-0.444645387955,0.386751661116,1.02245674636,0.444478923978,-1.40875292493,-1.19494052244e-07,3.2422355282e-07,-7.77591602016e-07,-6.42965412419e-07,1.21737754801e-06,0.0,0.0,0.0,0.0,0.0
483039000000,24135,483039000000,,end,joint2,joint4,joint6,motortom2m,-0.444645388157,0.386751660771,1.02245674608,0.44447892376,-1.40875292533,-3.21041405335e-07,-2.14150055706e-08,-1.05945727763e-06,-8.61251185431e-07,8.18568203028e-07,0.0,0.0,0.0,0.0,0.0
483060000000,24136,483059000000,,end,joint2,joint4,joint6,motortom2m,-0.444645387563,0.386751661787,1.02245674691,0.444478924402,-1.40875292416,2.72266187703e-07,9.95193519776e-07,-2.30117472772e-07,-2.18777749076e-07,1.99128142505e-06,0.0,0.0,0.0,0.0,0.0
483079000000,24137,483079000000,,end,joint2,joint4,joint6,motortom2m,-0.444645388156,0.386751660772,1.02245674608,0.444478923761,-1.40875292533,-3.20290409293e-07,-2.01286104451e-08,-1.05840736092e-06,-8.604377725e-07,8.2005178299e-07,0.0,0.0,0.0,0.0,0.0
483099000000,24138,483099000000,,end,joint2,joint4,joint6,motortom2m,-0.444645388157,0.38675166077,1.02245674608,0.44447892376,-1.40875292533,-3.21224627265e-07,-2.17288467916e-08,-1.05971334083e-06,-8.61449576977e-07,8.18206202493e-07,0.0,0.0,0.0,0.0,0.0
483120000000,24139,483119000000,,end,joint2,joint4,joint6,motortom2m,-0.444645387563,0.386751661787,1.02245674691,0.444478924402,-1.40875292416,2.72154555001e-07,9.95002229107e-07,-2.30273517259e-07,-2.1889863126e-07,1.99106075054e-06,0.0,0.0,0.0,0.0,0.0
483139000000,24140,483139000000,,end,joint2,joint4,joint6,motortom2m,-0.444645388156,0.386751660772,1.02245674608,0.444478923761,-1.40875292533,-3.20191093152e-07,-1.99582870282e-08,-1.05826846553e-06,-8.60330208259e-07,8.20248310086e-07,0.0,0.0,0.0,0.0,0.0
483170000000,24141,483159000000,,end,joint2,joint4,joint6,motortom2m,-0.444645388157,0.38675166077,1.02245674608,0.444478923759,-1.40875292533,-3.21364330562e-07,-2.19681299723e-08,-1.05990857883e-06,-8.61600846001e-07,8.17930207421e-07,0.0,0.0,0.0,0.0,0.0
483178000000,24142,483179000000,,end,joint2,joint4,joint6,motortom2m,-0.444645387563,0.386751661787,1.02245674691,0.444478924402,-1.40875292416,2.7212776712e-07,9.94956382539e-07,-2.30310937544e-07,-2.18927632644e-07,1.99100788202e-06,0.0,0.0,0.0,0.0,0.0
483199000000,24143,483199000000,,end,joint2,joint4,joint6,motortom2m,-0.444645388156,0.386751660772,1.02245674608,0.444478923761,-1.40875292533,-3.20076765211e-07,-1.97620752987e-08,-1.05810890031e-06,-8.60206631439e-07,8.20475042691e-07,0.0,0.0,0.0,0.0,0.0
483219000000,24144,483219000000,,end,joint2,joint4,joint6,motortom2m,-0.444645388157,0.38675166077,1.02245674608,0.444478923759,-1.40875292533,-3.2156760892e-07,-2.23163295092e-08,-1.06019267524e-06,-8.61820955981e-07,8.17528576398e-07,0.0,0.0,0.0,0.0,0.0
483239000000,24145,483239000000,,end,joint2,joint4,joint6,motortom2m,-0.444645387564,0.386751661787,1.02245674691,0.444478924402,-1.40875292416,2.72062520002e-07,9.94844637224e-07,-2.30402114344e-07,-2.18998278417e-07,1.99087899149e-06,0.0,0.0,0.0,0.0,0.0
483259000000,24146,483259000000,,end,joint2,joint4,joint6,motortom2m,-0.444645388156,0.386751660772,1.02245674608,0.444478923761,-1.40875292533,-3.20016169884e-07,-1.96581044906e-08,-1.05802413267e-06,-8.60140997471e-07,8.20595026482e-07,0.0,0.0,0.0,0.0,0.0
483279000000,24147,483279000000,,end,joint2,joint4,joint6,motortom2m,-0.444645388157,0.386751660769,1.02245674608,0.444478923759,-1.40875292533,-3.21718746531e-07,-2.25752082059e-08,-1.06040389791e-06,-8.61984607247e-07,8.17229975739e-07,0.0,0.0,0.0,0.0,0.0
483302000000,24148,483299000000,,end,joint2,joint4,joint6,motortom2m,-0.444645387564,0.386751661787,1.02245674691,0.444478924402,-1.40875292416,2.7204917716e-07,9.94821826985e-07,-2.30420741369e-07,-2.19012720744e-07,1.99085269621e-06,0.0,0.0,0.0,0.0,0.0
483319000000,24149,483319000000,,end,joint2,joint4,joint6,motortom2m,-0.444645388156,0.386751660772,1.02245674608,0.444478923761,-1.40875292533,-3.19938289728e-07,-1.95253668982e-08,-1.05791558114e-06,-8.6005673944e-07,8.20747884496e-07,0.0,0.0,0.0,0.0,0.0
483339000000,24150,483339000000,,end,joint2,joint4,joint6,motortom2m,-0.444645388158,0.386751660769,1.02245674608,0.444478923759,-1.40875292533,-3.21935261631e-07,-2.29460876491e-08,-1.06070649682e-06,-8.622190509e-07,8.16802182688e-07,0.0,0.0,0.0,0.0,0.0
483359000000,24151,483359000000,,end,joint2,joint4,joint6,motortom2m,-0.444645387564,0.386751661787,1.02245674691,0.444478924402,-1.40875292416,2.7202688506e-07,9.94783722518e-07,-2.30451857523e-07,-2.19036847846e-07,1.99080876893e-06,0.0,0.0,0.0,0.0,0.0
483379000000,24152,483379000000,,end,joint2,joint4,joint6,motortom2m,-0.444645388156,0.386751660772,1.02245674608,0.444478923761,-1.40875292533,-3.19913270579e-07,-1.94823606422e-08,-1.05788054564e-06,-8.60029630524e-07,8.20797540322e-07,0.0,0.0,0.0,0.0,0.0
483399000000,24153,483399000000,,end,joint2,joint4,joint6,motortom2m,-0.444649254697,0.386754357708,1.02245616119,0.444476794981,-1.40874904218,-3.22094445743e-07,-2.32165281705e-08,-1.06092811811e-06,-8.62390758108e-07,8.16495182947e-07,0.0,0.0,0.0,0.0,0.0
483419000000,24154,483419000000,,end,joint2,joint4,joint6,motortom2m,-0.444795282169,0.386856214379,1.0224340723,0.444396397824,-1.40860238577,2.720282815e-07,9.9476074325e-07,-2.30471288216e-07,-2.19023219325e-07,1.99095049329e-06,0.0,0.0,0.0,0.0,0.0
483439000000,24155,483439000000,,end,joint2,joint4,joint6,motortom2m,-0.44532560398,0.387226116327,1.02235384957,0.444104421396,-1.40806978806,-3.19978415194e-07,-1.98246355319e-08,-1.05813683995e-06,-8.60077741642e-07,8.21092928375e-07,0.0,0.0,0.0,0.0,0.0
483459000000,24156,483459000000,,end,joint2,joint4,joint6,motortom2m,-0.446380738862,0.387962080685,1.02219423891,0.443523502087,-1.40701012151,-3.22584563775e-07,-2.47521741502e-08,-1.06208870107e-06,-8.62880701438e-07,8.16449218796e-07,0.0,0.0,0.0,0.0,0.0
483479000000,24157,483479000000,,end,joint2,joint4,joint6,motortom2m,-0.448007265295,0.389096596306,1.02194819439,0.442627995468,-1.40537660758,2.71952179756e-07,9.93280448349e-07,-2.31441931054e-07,-2.18965691166e-07,1.99261593907e-06,0.0,0.0,0.0,0.0,0.0
483500000000,24158,483499000000,,end,joint2,joint4,joint6,motortom2m,-0.450179869872,0.390612002601,1.02161954295,0.441431837246,-1.40319467372,-3.2079531667e-07,-2.35188622499e-08,-1.06078174396e-06,-8.60896587657e-07,8.21572076346e-07,0.0,0.0,0.0,0.0,0.0
483520000000,24159,483519000000,,end,joint2,joint4,joint6,motortom2m,-0.452823390272,0.392455877585,1.02121965665,0.439976410042,-1.40053979976,-3.2388793585e-07,-3.01529395441e-08,-1.06596372502e-06,-8.64221074616e-07,8.16474838226e-07,0.0,0.0,0.0,0.0,0.0
483540000000,24160,483539000000,,end,joint2,joint4,joint6,motortom2m,-0.455834868927,0.394556407617,1.02076410994,0.4383183986,-1.39751538544,2.71654061288e-07,9.89004810309e-07,-2.34191365674e-07,-2.19009102612e-07,1.99576341421e-06,0.0,0.0,0.0,0.0,0.0
483561000000,24161,483559000000,,end,joint2,joint4,joint6,motortom2m,-0.459105601383,0.396837766228,1.02026934437,0.436517650733,-1.39423060743,-3.22397663415e-07,-3.08730736892e-08,-1.0659620535e-06,-8.62555286939e-07,8.21696240598e-07,0.0,0.0,0.0,0.0,0.0
483580000000,24162,483579000000,,end,joint2,joint4,joint6,motortom2m,-0.462543178665,0.399235503215,1.01974934164,0.43462504477,-1.39077826448,2.73121669324e-07,9.87999471647e-07,-2.34267002029e-07,-2.17209859158e-07,2.00143681266e-06,0.0,0.0,0.0,0.0,0.0
483600000000,24163,483599000000,,end,joint2,joint4,joint6,motortom2m,-0.46609354395,0.401711909236,1.01921227673,0.432670341502,-1.38721265092,2.71254626672e-07,9.83121309806e-07,-2.37911247052e-07,-2.19094716799e-07,1.9994788418e-06,0.0,0.0,0.0,0.0,0.0
483619000000,24164,483619000000,,end,joint2,joint4,joint6,motortom2m,-0.469763034938,0.404271404893,1.01865719093,0.430650051621,-1.38352740183,-3.24396486022e-07,-3.99918805173e-08,-1.072329414e-06,-8.64633741178e-07,8.21402634877e-07,0.0,0.0,0.0,0.0,0.0
483639000000,24165,483639000000,,end,joint2,joint4,joint6,motortom2m,-0.473640432258,0.406975919636,1.01807065659,0.428515296655,-1.37963334993,2.72407588432e-07,9.81246569613e-07,-2.38615820981e-07,-2.17578455498e-07,2.00503046928e-06,0.0,0.0,0.0,0.0,0.0
483660000000,24166,483659000000,,end,joint2,joint4,joint6,motortom2m,-0.478015328894,0.410027442388,1.01740886463,0.426106636172,-1.37523966382,2.70825391458e-07,9.76369301684e-07,-2.42129874841e-07,-2.19123152631e-07,2.00388522515e-06,0.0,0.0,0.0,0.0,0.0
483681000000,24167,483679000000,,end,joint2,joint4,joint6,motortom2m,-0.483310401838,0.413720793482,1.01660787657,0.423191359445,-1.36992185118,-3.26898520025e-07,-5.13622583171e-08,-1.080236343e-06,-8.67173139277e-07,8.2133124286e-07,0.0,0.0,0.0,0.0,0.0
483699000000,24168,483699000000,,end,joint2,joint4,joint6,motortom2m,-0.489382990765,0.417956470608,1.01568927493,0.419848011066,-1.36382317968,2.71132513518e-07,9.71141092549e-07,-2.45116558481e-07,-2.18346689889e-07,2.00946070702e-06,0.0,0.0,0.0,0.0,0.0
483719000000,24169,483719000000,,end,joint2,joint4,joint6,motortom2m,-0.495790209026,0.422425552725,1.01472005305,0.416320427511,-1.35738844345,2.70114855034e-07,9.65996171342e-07,-2.48527567666e-07,-2.19212161915e-07,2.01000701769e-06,0.0,0.0,0.0,0.0,0.0
483739000000,24170,483739000000,,end,joint2,joint4,joint6,motortom2m,-0.502257329896,0.426936415906,1.01374176894,0.412759863417,-1.35089354914,-3.3045040206e-07,-6.78595188383e-08,-1.091522586e-06,-8.70789751934e-07,8.20394153222e-07,0.0,0.0,0.0,0.0,0.0
483760000000,24171,483759000000,,end,joint2,joint4,joint6,motortom2m,-0.50901817751,0.431652158562,1.0127190542,0.409037584601,-1.34410366298,2.69609589914e-07,9.58077827652e-07,-2.53311792502e-07,-2.19245098026e-07,2.01422690482e-06,0.0,0.0,0.0,0.0,0.0
483780000000,24172,483779000000,,end,joint2,joint4,joint6,motortom2m,-0.516265513225,0.436707228817,1.0116227475,0.405047462642,-1.33682520113,2.69206766317e-07,9.53509340354e-07,-2.56093080115e-07,-2.19386255667e-07,2.01625328127e-06,0.0,0.0,0.0,0.0,0.0
483800000000,24173,483799000000,,end,joint2,joint4,joint6,motortom2m,-0.523894371581,0.442028412478,1.010468727,0.400847287737,-1.32916357987,-3.34470966731e-07,-8.68144856907e-08,-1.10430639076e-06,-8.74811466227e-07,8.1912107141e-07,0.0,0.0,0.0,0.0,0.0
483820000000,24174,483819000000,,end,joint2,joint4,joint6,motortom2m,-0.531786563624,0.447533276245,1.00927487344,0.396502131437,-1.32123749033,2.67810296008e-07,9.42638259507e-07,-2.62828965715e-07,-2.20257816401e-07,2.01924416822e-06,0.0,0.0,0.0,0.0,0.0
483840000000,24175,483839000000,,end,joint2,joint4,joint6,motortom2m,-0.540024385854,0.45327921671,1.00802873478,0.391966682961,-1.3129642898,-3.36484129974e-07,-9.94413852178e-08,-1.11245152814e-06,-8.76702398285e-07,8.19839131238e-07,0.0,0.0,0.0,0.0,0.0
483859000000,24176,483859000000,,end,joint2,joint4,joint6,motortom2m,-0.548668884548,0.459308818469,1.00672107881,0.387207333396,-1.30428266439,-3.39295541319e-07,-1.09227784544e-07,-1.11923391894e-06,-8.79583344468e-07,8.16702245543e-07,0.0,0.0,0.0,0.0,0.0
483879000000,24177,483879000000,,end,joint2,joint4,joint6,motortom2m,-0.557637517402,0.465564507668,1.00536439172,0.382269527567,-1.29527551089,2.65826698927e-07,9.24867603598e-07,-2.7353136969e-07,-2.21267658475e-07,2.02440399983e-06,0.0,0.0,0.0,0.0,0.0
483899000000,24178,483899000000,,end,joint2,joint4,joint6,motortom2m,-0.566950645261,0.472060481756,1.00395559125,0.377142054547,-1.28592238647,-3.40564984985e-07,-1.22003403316e-07,-1.1269962314e-06,-8.80556082406e-07,8.19191680291e-07,0.0,0.0,0.0,0.0,0.0
483919000000,24179,483919000000,,end,joint2,joint4,joint6,motortom2m,-0.576767176783,0.478907585076,1.00247064151,0.371737425929,-1.27606394621,-3.44813679998e-07,-1.35043861155e-07,-1.13615127465e-06,-8.8493906438e-07,8.13324892131e-07,0.0,0.0,0.0,0.0,0.0
483939000000,24180,483939000000,,end,joint2,joint4,joint6,motortom2m,-0.586704882473,0.485839209753,1.00096736248,0.36626608351,-1.26608330619,2.63670885529e-07,9.04566805535e-07,-2.85447123615e-07,-2.22233880099e-07,2.02947274807e-06,0.0,0.0,0.0,0.0,0.0
483960000000,24181,483959000000,,end,joint2,joint4,joint6,motortom2m,-0.596589888278,0.49273407293,0.99947205385,0.360823755093,-1.25615584771,-3.4548045155e-07,-1.48025591359e-07,-1.14356748381e-06,-8.85156633994e-07,8.16856636007e-07,0.0,0.0,0.0,0.0,0.0
483979000000,24182,483979000000,,end,joint2,joint4,joint6,motortom2m,-0.606566963294,0.499693158004,0.997962819411,0.35533073734,-1.2461579796,2.62974657663e-07,8.91758848827e-07,-2.92493179827e-07,-2.21997394183e-07,2.03392175601e-06,0.0,0.0,0.0,0.0,0.0
483999000000,24183,483999000000,,end,joint2,joint4,joint6,motortom2m,-0.616549207752,0.506655847329,0.996452802225,0.349834873152,-1.2361579796,2.61596755153e-07,8.83491567845e-07,-2.97466965928e-07,-2.22980772917e-07,2.0339530097e-06,0.0,0.0,0.0,0.0,0.0
484019000000,24184,484019000000,,end,joint2,joint4,joint6,motortom2m,-0.626506654817,0.513601238811,0.994946535383,0.344352661185,-1.22615798082,-3.50960406343e-07,-1.75506633027e-07,-1.16091106275e-06,-8.90239010667e-07,8.1281792381e-07,0.0,0.0,0.0,0.0,0.0
484039000000,24185,484039000000,,end,joint2,joint4,joint6,motortom2m,-0.636463889399,0.52054648504,0.993440302215,0.338870566863,-1.2161579796,2.59296487428e-07,8.67656539326e-07,-3.06735283266e-07,-2.24419768775e-07,2.03466057875e-06,0.0,0.0,0.0,0.0,0.0
484061000000,24186,484059000000,,end,joint2,joint4,joint6,motortom2m,-0.646421125252,0.527491729201,0.991934067322,0.33338847118,-1.20615798082,-3.52988389187e-07,-1.91150275397e-07,-1.17010164119e-06,-8.91783150834e-07,8.13083978659e-07,0.0,0.0,0.0,0.0,0.0
484079000000,24187,484079000000,,end,joint2,joint4,joint6,motortom2m,-0.656378360602,0.534436974482,0.990427833269,0.327906376104,-1.19615798083,-3.56836534816e-07,-2.03877099003e-07,-1.17865228741e-06,-8.956247708e-07,8.07470802158e-07,0.0,0.0,0.0,0.0,0.0
484099000000,24188,484099000000,,end,joint2,joint4,joint6,motortom2m,-0.666335595475,0.541382220921,0.988921600061,0.322424281624,-1.1861579796,2.56212119481e-07,8.44299120032e-07,-3.20040582991e-07,-2.26088875182e-07,2.03581308796e-06,0.0,0.0,0.0,0.0,0.0
484119000000,24189,484119000000,,end,joint2,joint4,joint6,motortom2m,-0.676292831453,0.548327465165,0.987415365148,0.316942185872,-1.17615798083,-3.57544545827e-07,-2.17370687714e-07,-1.18587632291e-06,-8.95637939381e-07,8.10064394614e-07,0.0,0.0,0.0,0.0,0.0
484139000000,24190,484139000000,,end,joint2,joint4,joint6,motortom2m,-0.686250066091,0.555272711438,0.985909131975,0.311460091521,-1.1661579796,2.5463372388e-07,8.29409251281e-07,-3.28179883042e-07,-2.26620347341e-07,2.03712159668e-06,0.0,0.0,0.0,0.0,0.0
484162000000,24191,484159000000,,end,joint2,joint4,joint6,motortom2m,-0.696207301689,0.562217955916,0.984402897377,0.30597799609,-1.15615798041,-1.52953963376e-07,1.22521690444e-07,-9.04160493592e-07,-6.71255654629e-07,1.2238772941e-06,0.0,0.0,0.0,0.0,0.0
484179000000,24192,484179000000,,end,joint2,joint4,joint6,motortom2m,-0.706164537156,0.569163200779,0.982896663047,0.300495900837,-1.14615798083,-3.63186070124e-07,-2.45594761896e-07,-1.20299878459e-06,-9.0054478493e-07,8.04442563459e-07,0.0,0.0,0.0,0.0,0.0
484199000000,24193,484199000000,,end,joint2,joint4,joint6,motortom2m,-0.716121771785,0.57610844705,0.981390429878,0.295013806493,-1.1361579796,2.50457744818e-07,8.03784010188e-07,-3.42835954331e-07,-2.29305331402e-07,2.03486460386e-06,0.0,0.0,0.0,0.0,0.0
484220000000,24194,484219000000,,end,joint2,joint4,joint6,motortom2m,-0.726079007592,0.583053691172,0.979884194988,0.289531710834,-1.12615798083,-3.64275447852e-07,-2.59871882277e-07,-1.21055228837e-06,-9.00822455004e-07,8.05820662307e-07,0.0,0.0,0.0,0.0,0.0
484240000000,24195,484239000000,,end,joint2,joint4,joint6,motortom2m,-0.736036242243,0.589998937457,0.978377961816,0.284049616477,-1.1161579796,2.49031113759e-07,7.88930200896e-07,-3.5063055608e-07,-2.29554224911e-07,2.03568817587e-06,0.0,0.0,0.0,0.0,0.0
484259000000,24196,484259000000,,end,joint2,joint4,joint6,motortom2m,-0.745993478046,0.596944182075,0.976871727186,0.278567520932,-1.10615798042,-1.59652712943e-07,8.00052955413e-08,-9.28411966437e-07,-6.75943689939e-07,1.21947239836e-06,0.0,0.0,0.0,0.0,0.0
484279000000,24197,484279000000,,end,joint2,joint4,joint6,motortom2m,-0.755950713735,0.603889427092,0.975365492822,0.273085425557,-1.09615798084,-3.69793049153e-07,-2.88018313381e-07,-1.22718113889e-06,-9.05374976489e-07,7.99812341601e-07,0.0,0.0,0.0,0.0,0.0
484299000000,24198,484299000000,,end,joint2,joint4,joint6,motortom2m,-0.765907948442,0.610834673418,0.973859259641,0.267603331171,-1.08615797961,2.44059215699e-07,7.61641964969e-07,-3.66203232591e-07,-2.32941414179e-07,2.03068326853e-06,0.0,0.0,0.0,0.0,0.0
484320000000,24199,484319000000,,end,joint2,joint4,joint6,motortom2m,-0.775865184283,0.617779917564,0.972353024746,0.262121235492,-1.07615798084,-3.70777073202e-07,-3.02169651314e-07,-1.23436435717e-06,-9.05389387172e-07,8.0101087099e-07,0.0,0.0,0.0,0.0,0.0
484339000000,24200,484339000000,,end,joint2,joint4,joint6,motortom2m,-0.785822418868,0.624725163802,0.970846791584,0.256639141172,-1.06615797961,2.42175429838e-07,7.45833278474e-07,-3.74499894896e-07,-2.33578799879e-07,2.02984253631e-06,0.0,0.0,0.0,0.0,0.0
484359000000,24201,484359000000,,end,joint2,joint4,joint6,motortom2m,-0.795779654548,0.631670408336,0.969340556973,0.251157045694,-1.05615798042,-1.65951860023e-07,3.79465640576e-08,-9.51616229602e-07,-6.79860516173e-07,1.21459058475e-06,0.0,0.0,0.0,0.0,0.0
484379000000,24202,484379000000,,end,joint2,joint4,joint6,motortom2m,-0.805736889977,0.638615653172,0.967834322648,0.245674950462,-1.04615798084,-3.76238361953e-07,-3.30255591626e-07,-1.25057501242e-06,-9.09666984611e-07,7.94568930553e-07,0.0,0.0,0.0,0.0,0.0
484399000000,24203,484399000000,,end,joint2,joint4,joint6,motortom2m,-0.815694124567,0.645560899414,0.966328089485,0.240192856141,-1.03615797961,2.37022911049e-07,7.18018100981e-07,-3.90110413246e-07,-2.37002985878e-07,2.02337815795e-06,0.0,0.0,0.0,0.0,0.0
484419000000,24204,484419000000,,end,joint2,joint4,joint6,motortom2m,-0.825651360469,0.652506143605,0.964821854582,0.234710760428,-1.02615798084,-3.76973474381e-07,-3.43977165253e-07,-1.25717648239e-06,-9.09264956033e-07,7.95921824227e-07,0.0,0.0,0.0,0.0,0.0
484439000000,24205,484439000000,,end,joint2,joint4,joint6,motortom2m,-0.835608595302,0.659451390011,0.96331562138,0.229228665972,-1.01615797962,2.34250427156e-07,7.00556762882e-07,-3.99510241504e-07,-2.38507516999e-07,2.02003831903e-06,0.0,0.0,0.0,0.0,0.0
484459000000,24206,484459000000,,end,joint2,joint4,joint6,motortom2m,-0.845565831361,0.666396634313,0.961809386454,0.223746570174,-1.00615798084,-3.7886642868e-07,-3.59674638253e-07,-1.26531285328e-06,-9.10075215721e-07,7.94831429155e-07,0.0,0.0,0.0,0.0,0.0
484479000000,24207,484479000000,,end,joint2,joint4,joint6,motortom2m,-0.855523066038,0.673341880611,0.960303153275,0.218264475804,-0.996157979619,2.32732860083e-07,6.85064124786e-07,-4.0715257531e-07,-2.38615244713e-07,2.01870153198e-06,0.0,0.0,0.0,0.0,0.0
484499000000,24208,484499000000,,end,joint2,joint4,joint6,motortom2m,-0.865480301246,0.680287125795,0.958796919245,0.212782380807,-0.986157979624,2.29695938145e-07,6.73614506473e-07,-4.14051397903e-07,-2.41120125199e-07,2.01371266721e-06,0.0,0.0,0.0,0.0,0.0
484519000000,24209,484519000000,,end,joint2,joint4,joint6,motortom2m,-0.875437537076,0.687232369938,0.957290684354,0.207300285133,-0.976157980848,-3.83368817211e-07,-3.86039525524e-07,-1.27968030978e-06,-9.13011700294e-07,7.89640782652e-07,0.0,0.0,0.0,0.0,0.0
484539000000,24210,484539000000,,end,joint2,joint4,joint6,motortom2m,-0.885394771739,0.694177616221,0.955784451175,0.201818190771,-0.966157979629,2.25997015798e-07,6.54473199273e-07,-4.24600363171e-07,-2.43537800005e-07,2.00782271038e-06,0.0,0.0,0.0,0.0,0.0
484559000000,24211,484559000000,,end,joint2,joint4,joint6,motortom2m,-0.895352007548,0.701122860357,0.954278216291,0.19633609511,-0.956157980847,-3.84263111216e-07,-3.99962009e-07,-1.2861727149e-06,-9.12588997867e-07,7.90240547329e-07,0.0,0.0,0.0,0.0,0.0
484580000000,24212,484579000000,,end,joint2,joint4,joint6,motortom2m,-0.905309242166,0.708068106602,0.952771983116,0.190854000772,-0.946157979634,2.22915682131e-07,6.36366782257e-07,-4.34215340248e-07,-2.45236803734e-07,2.00289195616e-06,0.0,0.0,0.0,0.0,0.0
484599000000,24213,484599000000,,end,joint2,joint4,joint6,motortom2m,-0.915266478094,0.715013350826,0.951265748216,0.185371905046,-0.936157980848,-3.85783307921e-07,-4.14926670044e-07,-1.29344893489e-06,-9.12798345483e-07,7.894720534e-07,0.0,0.0,0.0,0.0,0.0
484619000000,24214,484619000000,,end,joint2,joint4,joint6,motortom2m,-0.925223712965,0.721958597245,0.949759515002,0.179889810568,-0.926157979638,2.20640038282e-07,6.19622217151e-07,-4.42629615139e-07,-2.46009450002e-07,1.99929481884e-06,0.0,0.0,0.0,0.0,0.0
484639000000,24215,484639000000,,end,joint2,joint4,joint6,motortom2m,-0.935180948766,0.728903841875,0.948253280378,0.174407715025,-0.916157980441,-1.83085261859e-07,-7.9159700684e-08,-1.01313043983e-06,-6.88574549613e-07,1.19588670304e-06,0.0,0.0,0.0,0.0,0.0
484659000000,24216,484659000000,,end,joint2,joint4,joint6,motortom2m,-0.945138184239,0.735849086749,0.946747046051,0.16892561977,-0.906157980854,-3.90593517796e-07,-4.41641835429e-07,-1.30773842257e-06,-9.15789829457e-07,7.83063080922e-07,0.0,0.0,0.0,0.0,0.0
484679000000,24217,484679000000,,end,joint2,joint4,joint6,motortom2m,-0.955095418826,0.742794332966,0.945240812878,0.163443525448,-0.89615797965,2.14174988864e-07,5.89234799447e-07,-4.59417295672e-07,-2.50442964991e-07,1.98730344536e-06,0.0,0.0,0.0,0.0,0.0
484699000000,24218,484699000000,,end,joint2,joint4,joint6,motortom2m,-0.965052654673,0.749739577143,0.943734577995,0.157961429768,-0.886157980853,-3.90879434623e-07,-4.54389449462e-07,-1.31303113179e-06,-9.14507746242e-07,7.84459640567e-07,0.0,0.0,0.0,0.0,0.0
484720000000,24219,484719000000,,end,joint2,joint4,joint6,motortom2m,-0.975009889329,0.756684823399,0.942228344806,0.152479335406,-0.876157979657,2.10405209773e-07,5.69890193349e-07,-4.69758662303e-07,-2.52752979993e-07,1.98004948895e-06,0.0,0.0,0.0,0.0,0.0
484740000000,24220,484739000000,,end,joint2,joint4,joint6,motortom2m,-0.984967125122,0.763630067546,0.940722109936,0.146997239758,-0.866157980853,-3.91670869768e-07,-4.67958607074e-07,-1.31893389872e-06,-9.13725915156e-07,7.84728478641e-07,0.0,0.0,0.0,0.0,0.0
484759000000,24221,484759000000,,end,joint2,joint4,joint6,motortom2m,-0.994924359773,0.770575313791,0.939215876745,0.141515145398,-0.856157979664,2.06998910159e-07,5.51163281629e-07,-4.79512893075e-07,-2.54620454201e-07,1.97324923656e-06,0.0,0.0,0.0,0.0,0.0
484779000000,24222,484779000000,,end,joint2,joint4,joint6,motortom2m,-1.00488159573,0.777520558062,0.937709641852,0.136033049659,-0.846157980853,-3.92780891368e-07,-4.82023597007e-07,-1.3251812647e-06,-9.13238861062e-07,7.84243620381e-07,0.0,0.0,0.0,0.0,0.0
484799000000,24223,484799000000,,end,joint2,joint4,joint6,motortom2m,-1.01483883062,0.784465804468,0.936203408622,0.130550955166,-0.83615797967,2.03942465684e-07,5.33034899391e-07,-4.8869565732e-07,-2.56058872915e-07,1.96687375376e-06,0.0,0.0,0.0,0.0,0.0
484819000000,24224,484819000000,,end,joint2,joint4,joint6,motortom2m,-1.02479620033,0.791411142029,0.9346971535,0.125068785794,-0.826157980854,-3.94195546082e-07,-4.96555979199e-07,-1.33175075892e-06,-9.13030846629e-07,7.83033223155e-07,0.0,0.0,0.0,0.0,0.0
484839000000,24225,484839000000,,end,joint2,joint4,joint6,motortom2m,-1.03479183541,0.798448028611,0.933171046015,0.119514356896,-0.816157979677,2.00985148801e-07,5.14890488503e-07,-4.97731852599e-07,-2.5734234316e-07,1.9602000081e-06,0.0,0.0,0.0,0.0,0.0
484859000000,24226,484859000000,,end,joint2,joint4,joint6,motortom2m,-1.0447918358,0.805504071808,0.931640782224,0.113944804667,-0.806157980459,-1.94812210564e-07,-1.6763977808e-07,-1.05598625763e-06,-6.91744068056e-07,1.17874782496e-06,0.0,0.0,0.0,0.0,0.0
